[
  {
    "name": "Памятник Хатико у станции Сибуя",
    "location": {
      "lat": "35.6585",
      "lng": "139.7013"
    }
  },
  {
    "name": "Небесное дерево Токио",
    "location": {
      "lat": "35.4236",
      "lng": "139.4839"
    }
  },
  {
    "name": "Парк Уэно",
    "location": {
      "lat": "35.7122",
      "lng": "139.7711"
    }
  },
  {
    "name": "Телевизионная башня Токио",
    "location": {
      "lat": "35.6586",
      "lng": "139.7456"
    }
  },
  {
    "name": "Императорский дворец Токио",
    "location": {
      "lat": "35.6825",
      "lng": "139.7521"
    }
  },
  {
    "name": "Музей аниме-студии Гибли",
    "location": {
      "lat": "35.6962",
      "lng": "139.5704"
    }
  },
  {
    "name": "Roppongi Hills Mori Tower",
    "location": {
      "lat": "35.6606",
      "lng": "139.7292"
    }
  },
  {
    "name": "Центральный вокзал Токио",
    "location": {
      "lat": "35.6808",
      "lng": "139.7669"
    }
  },
  {
    "name": "Парк Сиба",
    "location": {
      "lat": "35.6564",
      "lng": "139.7483"
    }
  },
  {
    "name": "Статуя свободы на острове Одайба",
    "location": {
      "lat": "35.6300",
      "lng": "139.7750"
    }
  },
  {
    "name": "Центр Toyota Megaweb",
    "location": {
      "lat": "35.37522",
      "lng": "139.46584"
    }
  }
]
